---
Mid-Levels:
  :name_zh_tw: "半山"
  :territory_name_en: Hong Kong Island
  :latitude: 22.2811673
  :longitude: 114.142449
Sheung Wan:
  :name_zh_tw: "上環"
  :territory_name_en: Hong Kong Island
  :latitude: 22.286992
  :longitude: 114.15164
Central:
  :name_zh_tw: "中環"
  :territory_name_en: Hong Kong Island
  :latitude: 22.281035
  :longitude: 114.15885
Jordan:
  :name_zh_tw: "佐敦"
  :territory_name_en: Kowloon
  :latitude: 22.305178
  :longitude: 114.171638
Yuen Long:
  :name_zh_tw: "元朗"
  :territory_name_en: New Territories
  :latitude: 22.440741
  :longitude: 114.015899
North Point:
  :name_zh_tw: "北角"
  :territory_name_en: Hong Kong Island
  :latitude: 22.2914
  :longitude: 114.200735
Nam Cheong:
  :name_zh_tw: "南昌"
  :territory_name_en: Kowloon
  :latitude: 22.326734
  :longitude: 114.153599
Kwu Tung:
  :name_zh_tw: "古洞"
  :territory_name_en: New Territories
  :latitude: 22.5038012
  :longitude: 114.1023164
Kai Tak:
  :name_zh_tw: "啟德"
  :territory_name_en: Kowloon
  :latitude: 22.318056
  :longitude: 114.2
Tai Wai:
  :name_zh_tw: "大圍"
  :territory_name_en: New Territories
  :latitude: 22.373002
  :longitude: 114.178584
Tai Hau:
  :name_zh_tw: "大坑"
  :territory_name_en: Hong Kong Island
  :latitude: 22.2784639854031
  :longitude: 114.191915988922
Taipo:
  :name_zh_tw: "大埔"
  :territory_name_en: New Territories
  :latitude: 22.4510036
  :longitude: 114.1679475
Tai Tong:
  :name_zh_tw: "大棠"
  :territory_name_en: New Territories
  :latitude: 22.4145456
  :longitude: 114.0309608
Tai Lam:
  :name_zh_tw: "大欖"
  :territory_name_en: New Territories
  :latitude: 22.3663037
  :longitude: 114.0182262
Tai Tam:
  :name_zh_tw: "大潭"
  :territory_name_en: Hong Kong Island
  :latitude: 22.2636617
  :longitude: 114.2093287
Tin Hau:
  :name_zh_tw: "天后"
  :territory_name_en: Hong Kong Island
  :latitude: 22.2825740975104
  :longitude: 114.192087650299
Tai Koo:
  :name_zh_tw: "太古"
  :territory_name_en: Hong Kong Island
  :latitude: 22.285733
  :longitude: 114.217431
Tai Wo:
  :name_zh_tw: "太和"
  :territory_name_en: New Territories
  :latitude: 22.452085105425
  :longitude: 114.160737991333
Prince Edward:
  :name_zh_tw: "太子"
  :territory_name_en: Kowloon
  :latitude: 22.3259731
  :longitude: 114.1730758
Olympic:
  :name_zh_tw: "奧運"
  :territory_name_en: Kowloon
  :latitude: 22.317771
  :longitude: 114.16022
Siu Lam:
  :name_zh_tw: "小欖"
  :territory_name_en: New Territories
  :latitude: 22.3672105
  :longitude: 114.0011406
Tuen Mun:
  :name_zh_tw: "屯門"
  :territory_name_en: New Territories
  :latitude: 22.395396
  :longitude: 113.973627
Choi Hung:
  :name_zh_tw: "彩虹"
  :territory_name_en: Kowloon
  :latitude: 22.3344166511554
  :longitude: 114.212086200714
Mong Kok:
  :name_zh_tw: "旺角"
  :territory_name_en: Kowloon
  :latitude: 22.318716
  :longitude: 114.169579
Tung Chung:
  :name_zh_tw: "東涌"
  :territory_name_en: New Territories
  :latitude: 22.2898111751485
  :longitude: 113.940839767456
Chai Wan:
  :name_zh_tw: "柴灣"
  :territory_name_en: Hong Kong Island
  :latitude: 22.264872
  :longitude: 114.239573
Lok Fu:
  :name_zh_tw: "樂富"
  :territory_name_en: Kowloon
  :latitude: 22.338128
  :longitude: 114.18756
Airport:
  :name_zh_tw: "機場"
  :territory_name_en: New Territories
  :latitude: 22.316058
  :longitude: 113.936503
Ting Kau:
  :name_zh_tw: "汀九"
  :territory_name_en: New Territories
  :latitude: 22.3768203
  :longitude: 114.0755593
Sha Tin:
  :name_zh_tw: "沙田"
  :territory_name_en: New Territories
  :latitude: 22.3816666142371
  :longitude: 114.189147949219
Yau Tong:
  :name_zh_tw: "油塘"
  :territory_name_en: New Territories
  :latitude: 22.296462
  :longitude: 114.237556
Sham Tseng:
  :name_zh_tw: "深井"
  :territory_name_en: New Territories
  :latitude: 22.36738
  :longitude: 114.054909
The University of Hong Kong HKU:
  :name_zh_tw: "香港大學"
  :territory_name_en: Hong Kong Island
  :latitude: 22.2829539
  :longitude: 114.1362629
Wan Chai:
  :name_zh_tw: "灣仔"
  :territory_name_en: Hong Kong Island
  :latitude: 22.277759
  :longitude: 114.173076
Fo Tan:
  :name_zh_tw: "火炭"
  :territory_name_en: New Territories
  :latitude: 22.3952373474545
  :longitude: 114.198160171508
Shek Kong:
  :name_zh_tw: "石崗"
  :territory_name_en: New Territories
  :latitude: 22.429395
  :longitude: 114.0785324
Shek O:
  :name_zh_tw: "石澳"
  :territory_name_en: Hong Kong Island
  :latitude: 22.237545
  :longitude: 114.238243
Fanling:
  :name_zh_tw: "粉嶺"
  :territory_name_en: New Territories
  :latitude: 22.493209
  :longitude: 114.139366
Hung Hom:
  :name_zh_tw: "紅磡"
  :territory_name_en: Kowloon
  :latitude: 22.304741
  :longitude: 114.187946
Mei Foo:
  :name_zh_tw: "美孚"
  :territory_name_en: Kowloon
  :latitude: 22.3375724398611
  :longitude: 114.140117168426
Lai King:
  :name_zh_tw: "荔景"
  :territory_name_en: New Territories
  :latitude: 22.348416
  :longitude: 114.126161
Kwai Chung:
  :name_zh_tw: "葵涌"
  :territory_name_en: New Territories
  :latitude: 22.3645318
  :longitude: 114.1301826
Lam Tei:
  :name_zh_tw: "藍地"
  :territory_name_en: New Territories
  :latitude: 22.4252755
  :longitude: 113.9804106
Lam Tin:
  :name_zh_tw: "藍田"
  :territory_name_en: Kowloon
  :latitude: 22.309307
  :longitude: 114.233565
Ho Chung:
  :name_zh_tw: "蠔涌"
  :territory_name_en: New Territories
  :latitude: 22.355211
  :longitude: 114.245936
Sai Wan:
  :name_zh_tw: "西環"
  :territory_name_en: Hong Kong Island
  :latitude: 22.286833
  :longitude: 114.140482
Sai Kung:
  :name_zh_tw: "西貢"
  :territory_name_en: New Territories
  :latitude: 22.379167
  :longitude: 114.268069
Kwun Tong:
  :name_zh_tw: "觀塘"
  :territory_name_en: Kowloon
  :latitude: 22.312801
  :longitude: 114.225798
Stanley:
  :name_zh_tw: "赤柱"
  :territory_name_en: Hong Kong Island
  :latitude: 22.219668
  :longitude: 114.209146
Kwan Tei:
  :name_zh_tw: "軍地"
  :territory_name_en: New Territories
  :latitude: 22.505546
  :longitude: 114.1617709
Kam Shan:
  :name_zh_tw: "金山"
  :territory_name_en: Kowloon
  :latitude: 22.3646433
  :longitude: 114.1528532
Admiralty:
  :name_zh_tw: "金鐘"
  :territory_name_en: Hong Kong Island
  :latitude: 22.279248
  :longitude: 114.164944
Kam Tin:
  :name_zh_tw: "錦田"
  :territory_name_en: New Territories
  :latitude: 22.4536037
  :longitude: 114.06664
Fairview Park:
  :name_zh_tw: "錦繡"
  :territory_name_en: New Territories
  :latitude: 22.477711
  :longitude: 114.045168
Tsing Yi:
  :name_zh_tw: "青衣"
  :territory_name_en: New Territories
  :latitude: 22.350552
  :longitude: 114.101686
Ma Wan:
  :name_zh_tw: "馬灣"
  :territory_name_en: New Territories
  :latitude: 22.348171
  :longitude: 114.059029
Sam Mun Tsai:
  :name_zh_tw: "三門仔"
  :territory_name_en: New Territories
  :latitude: 22.456865
  :longitude: 114.213647
Kau To Shan:
  :name_zh_tw: "九肚山"
  :territory_name_en: New Territories
  :latitude: 22.4112974
  :longitude: 114.2018982
Kowloon City:
  :name_zh_tw: "九龍城"
  :territory_name_en: Kowloon
  :latitude: 22.330308
  :longitude: 114.193182
Kowloon Tong:
  :name_zh_tw: "九龍塘"
  :territory_name_en: Kowloon
  :latitude: 22.337533
  :longitude: 114.178548
Kowloon Bay:
  :name_zh_tw: "九龍灣"
  :territory_name_en: Kowloon
  :latitude: 22.32344
  :longitude: 114.211464
Ho Man Tin:
  :name_zh_tw: "何文田"
  :territory_name_en: Kowloon
  :latitude: 22.313356
  :longitude: 114.179835
Shap Sze Heung:
  :name_zh_tw: "十四鄉"
  :territory_name_en: New Territories
  :latitude: 22.41808
  :longitude: 114.261653
Asia World-Expo:
  :name_zh_tw: "博覽館"
  :territory_name_en: New Territories
  :latitude: 22.321812
  :longitude: 113.941218
To Kwa Wan:
  :name_zh_tw: "土瓜灣"
  :territory_name_en: Kowloon
  :latitude: 22.31558
  :longitude: 114.190736
Tai Au Mun:
  :name_zh_tw: "大坳門"
  :territory_name_en: New Territories
  :latitude: 22.29614
  :longitude: 114.291912
Tai Mei Tuk:
  :name_zh_tw: "大尾篤"
  :territory_name_en: New Territories
  :latitude: 22.4669437
  :longitude: 114.2360518
Tai Mo Shan:
  :name_zh_tw: "大帽山"
  :territory_name_en: New Territories
  :latitude: 22.4166667
  :longitude: 114.1166667
Tai Mong Tsai:
  :name_zh_tw: "大網仔"
  :territory_name_en: New Territories
  :latitude: 22.3918219
  :longitude: 114.2976533
Tai Kok Tsui:
  :name_zh_tw: "大角咀"
  :territory_name_en: Kowloon
  :latitude: 22.321535
  :longitude: 114.162669
Tin Shui Wai:
  :name_zh_tw: "天水圍"
  :territory_name_en: New Territories
  :latitude: 22.462397
  :longitude: 114.001436
Braemar Hill:
  :name_zh_tw: "寶馬山"
  :territory_name_en: Hong Kong Island
  :latitude: 22.2862418
  :longitude: 114.2001106
Tseung Kwan O:
  :name_zh_tw: "將軍澳"
  :territory_name_en: New Territories
  :latitude: 22.311252
  :longitude: 114.258928
Siu Sai Wan:
  :name_zh_tw: "小西灣"
  :territory_name_en: Hong Kong Island
  :latitude: 22.2615148
  :longitude: 114.2494516
Tsim Sha Tsui:
  :name_zh_tw: "尖沙咀"
  :territory_name_en: Kowloon
  :latitude: 22.299381
  :longitude: 114.172111
Po Toi O:
  :name_zh_tw: "布袋澳"
  :territory_name_en: New Territories
  :latitude: 22.276528
  :longitude: 114.297481
Hong Lok Yuen:
  :name_zh_tw: "康樂園"
  :territory_name_en: New Territories
  :latitude: 22.4606817
  :longitude: 114.1543395
Discovery Bay:
  :name_zh_tw: "愉景灣"
  :territory_name_en: New Territories
  :latitude: 22.29545
  :longitude: 114.016242
Tsz Wan Shan:
  :name_zh_tw: "慈雲山"
  :territory_name_en: Kowloon
  :latitude: 22.348806
  :longitude: 114.196744
Mount Davis:
  :name_zh_tw: "摩星嶺"
  :territory_name_en: Hong Kong Island
  :latitude: 22.2772566
  :longitude: 114.1227427
Cyberport:
  :name_zh_tw: "數碼港"
  :territory_name_en: Hong Kong Island
  :latitude: 22.2584994
  :longitude: 114.1313015
San Po Kong:
  :name_zh_tw: "新蒲崗"
  :territory_name_en: Kowloon
  :latitude: 22.337215
  :longitude: 114.195457
Stonecutters Island:
  :name_zh_tw: "昂船洲"
  :territory_name_en: Kowloon
  :latitude: 22.3166667
  :longitude: 114.1333333
Lei Muk Shue:
  :name_zh_tw: "梨木樹"
  :territory_name_en: New Territories
  :latitude: 22.3784033
  :longitude: 114.1354555
Wang Tau Hom:
  :name_zh_tw: "橫頭磡"
  :territory_name_en: Kowloon
  :latitude: 22.3405302
  :longitude: 114.1862935
Sha Tau Kok:
  :name_zh_tw: "沙頭角"
  :territory_name_en: New Territories
  :latitude: 22.5333608
  :longitude: 114.1974398
Ap Lei Chau:
  :name_zh_tw: "鴨利洲"
  :territory_name_en: Hong Kong Island
  :latitude: 22.2418581
  :longitude: 114.1528532
Sheung Shui:
  :name_zh_tw: "上水"
  :territory_name_en: New Territories
  :latitude: 22.5029632
  :longitude: 114.1277213
The Peak:
  :name_zh_tw: "山頂"
  :territory_name_en: Hong Kong Island
  :latitude: 22.271425
  :longitude: 114.149666
Tsuen Wan:
  :name_zh_tw: "荃灣"
  :territory_name_en: New Territories
  :latitude: 22.3691157
  :longitude: 114.1175867
Tseng Lan Shue:
  :name_zh_tw: "井欗樹"
  :territory_name_en: Kowloon
  :latitude: 22.333647
  :longitude: 114.238192
Yau Ma Tei:
  :name_zh_tw: "油麻地"
  :territory_name_en: Kowloon
  :latitude: 22.313277
  :longitude: 114.170566
Hung Shui Kiu:
  :name_zh_tw: "洪水橋"
  :territory_name_en: New Territories
  :latitude: 22.4280617
  :longitude: 113.9982525
Lau Fau Shan:
  :name_zh_tw: "流浮山"
  :territory_name_en: New Territories
  :latitude: 22.4675128926014
  :longitude: 113.984484672546
Sham Shui Po:
  :name_zh_tw: "深水埗"
  :territory_name_en: Kowloon
  :latitude: 22.330983
  :longitude: 114.16224
Deep Water Bay:
  :name_zh_tw: "深水灣"
  :territory_name_en: Hong Kong Island
  :latitude: 22.2463478
  :longitude: 114.1847918
Repulse Bay:
  :name_zh_tw: "淺水灣"
  :territory_name_en: Hong Kong Island
  :latitude: 22.236909
  :longitude: 114.198332
Jardines Lookout:
  :name_zh_tw: "渣甸山"
  :territory_name_en: Hong Kong Island
  :latitude: 22.2705798
  :longitude: 114.1914048
Fortress Hill:
  :name_zh_tw: "炮台山"
  :territory_name_en: Hong Kong Island
  :latitude: 22.2892231
  :longitude: 114.1950696
Ngau Tau Kok:
  :name_zh_tw: "牛頭角"
  :territory_name_en: Kowloon
  :latitude: 22.317565
  :longitude: 114.217601
Beacon Hill:
  :name_zh_tw: "畢架山"
  :territory_name_en: Kowloon
  :latitude: 22.342168
  :longitude: 114.177936
Shek Kip Mei:
  :name_zh_tw: "石硤尾"
  :territory_name_en: Kowloon
  :latitude: 22.333662
  :longitude: 114.167819
Sau Mau Ping:
  :name_zh_tw: "秀茂坪"
  :territory_name_en: Kowloon
  :latitude: 22.3196469
  :longitude: 114.2345917
Shau Kei Wan:
  :name_zh_tw: "筲箕灣"
  :territory_name_en: Hong Kong Island
  :latitude: 22.277302
  :longitude: 114.231806
Chung Hom Kok:
  :name_zh_tw: "舂坎角"
  :territory_name_en: Hong Kong Island
  :latitude: 22.2183333
  :longitude: 114.2048704
Lai Chi Kok:
  :name_zh_tw: "荔枝角"
  :territory_name_en: Kowloon
  :latitude: 22.336937
  :longitude: 114.145246
Lok Ma Chau:
  :name_zh_tw: "落馬洲"
  :territory_name_en: New Territories
  :latitude: 22.507244
  :longitude: 114.079714
Pok Fu Lam:
  :name_zh_tw: "薄扶林"
  :territory_name_en: Hong Kong Island
  :latitude: 22.268843
  :longitude: 114.131513
Sai Wan Ho:
  :name_zh_tw: "西灣河"
  :territory_name_en: Hong Kong Island
  :latitude: 22.281909
  :longitude: 114.222922
Sai Ying Pun:
  :name_zh_tw: "西營盤"
  :territory_name_en: Hong Kong Island
  :latitude: 22.285957
  :longitude: 114.139804
Happy Valley:
  :name_zh_tw: "跑馬地"
  :territory_name_en: Hong Kong Island
  :latitude: 22.268526
  :longitude: 114.186444
Disneyland:
  :name_zh_tw: "迪士尼"
  :territory_name_en: New Territories
  :latitude: 22.317698
  :longitude: 114.043269
Causeway Bay:
  :name_zh_tw: "銅鑼灣"
  :territory_name_en: Hong Kong Island
  :latitude: 22.2802708611615
  :longitude: 114.183965921402
Diamond Hill:
  :name_zh_tw: "鑽石山"
  :territory_name_en: Kowloon
  :latitude: 22.342018
  :longitude: 114.201207
Cheung Sha Wan:
  :name_zh_tw: "長沙灣"
  :territory_name_en: Kowloon
  :latitude: 22.3355479798467
  :longitude: 114.155716896057
Hong Kong Parkview:
  :name_zh_tw: "陽明山"
  :territory_name_en: Hong Kong Island
  :latitude: 22.257503
  :longitude: 114.19847
Shun Lee:
  :name_zh_tw: "順利村"
  :territory_name_en: Kowloon
  :latitude: 22.327885
  :longitude: 114.224573
Fei Ngo Shan:
  :name_zh_tw: "飛鵝山"
  :territory_name_en: Kowloon
  :latitude: 22.3348487
  :longitude: 114.2259447
Aberdeen:
  :name_zh_tw: "香港仔"
  :territory_name_en: Hong Kong Island
  :latitude: 22.250653
  :longitude: 114.148464
Ma Liu Shui:
  :name_zh_tw: "馬料水"
  :territory_name_en: New Territories
  :latitude: 22.4231448
  :longitude: 114.2063565
Ma Yau Tong:
  :name_zh_tw: "馬油塘"
  :territory_name_en: Kowloon
  :latitude: 22.321765
  :longitude: 114.244353
Ma On Shan:
  :name_zh_tw: "馬鞍山"
  :territory_name_en: New Territories
  :latitude: 22.4178121
  :longitude: 114.2324061
Quarry Bay:
  :name_zh_tw: "鰂魚涌"
  :territory_name_en: Hong Kong Island
  :latitude: 22.288739
  :longitude: 114.21037
Wong Tai Sin:
  :name_zh_tw: "黃大仙"
  :territory_name_en: Kowloon
  :latitude: 22.341979
  :longitude: 114.194512
Wong Chuk Hang:
  :name_zh_tw: "黃竹坑"
  :territory_name_en: Hong Kong Island
  :latitude: 22.239055
  :longitude: 114.1706884
Lung Kwu Tan:
  :name_zh_tw: "龍鼓灘"
  :territory_name_en: New Territories
  :latitude: 22.3978049
  :longitude: 113.923907
Tate's Cairn:
  :name_zh_tw: "大老山"
  :territory_name_en: New Territories
  :latitude: 22.3666667
  :longitude: 114.2166667
Kwun Yam Shan:
  :name_zh_tw: "觀音山"
  :territory_name_en: New Territories
  :latitude: 22.426471
  :longitude: 114.119203
The Chinese University of Hong Kong CUHK:
  :name_zh_tw: "中文大學"
  :territory_name_en: New Territories
  :latitude: 22.4201533
  :longitude: 114.2070866
Palm Springs:
  :name_zh_tw: "加洲花園"
  :territory_name_en: New Territories
  :latitude: 22.592041
  :longitude: 114.135363
City University of Hong Kong:
  :name_zh_tw: "城市大學"
  :territory_name_en: Kowloon
  :latitude: 22.337155
  :longitude: 114.172807
Kennedy Town:
  :name_zh_tw: "堅尼地城"
  :territory_name_en: Hong Kong Island
  :latitude: 22.283811
  :longitude: 114.128085
Lingnan University:
  :name_zh_tw: "嶺南大學"
  :territory_name_en: New Territories
  :latitude: 22.4100565
  :longitude: 113.9823174
The Hong Kong Institute of Education:
  :name_zh_tw: "教育學院"
  :territory_name_en: New Territories
  :latitude: 22.282822
  :longitude: 114.1377004
Lohas Park:
  :name_zh_tw: "日出康城"
  :territory_name_en: New Territories
  :latitude: 22.296057
  :longitude: 114.271948
Hong Kong Shue Yan University:
  :name_zh_tw: "樹仁大學"
  :territory_name_en: Hong Kong Island
  :latitude: 22.286251
  :longitude: 114.197933
The Ocean Park:
  :name_zh_tw: "海洋公園"
  :territory_name_en: Hong Kong Island
  :latitude: 22.2344265
  :longitude: 114.1698414
Hong Kong Baptist University HKBU:
  :name_zh_tw: "浸會大學"
  :territory_name_en: Kowloon
  :latitude: 22.334123
  :longitude: 114.1826156
The Hong Kong Polytechnic University HKPU:
  :name_zh_tw: "理工大學"
  :territory_name_en: Kowloon
  :latitude: 22.3051948
  :longitude: 114.1794674
The Hong Kong University of Science and Technology HKUST:
  :name_zh_tw: "科技大學"
  :territory_name_en: New Territories
  :latitude: 22.3364559
  :longitude: 114.2636972
Wonderland Villas:
  :name_zh_tw: "華景山莊"
  :territory_name_en: New Territories
  :latitude: 22.353803
  :longitude: 114.135413
Tseung Kwan O Industrial Estate:
  :name_zh_tw: "將軍澳工業邨"
  :territory_name_en: New Territories
  :latitude: 22.2789086
  :longitude: 114.2717405
Silverstrand:
  :name_zh_tw: "銀線灣"
  :territory_name_en: New Territories
  :latitude: 22.3260499
  :longitude: 114.2770677
